{"offices": [{"address": "Morocco\u00a015\n8200\u00a0Aarhus\nAzrou", "id": "elamraoui", "image": "https://lh5.googleusercontent.com/p/AF1QipOMyR9KUvF6JHbthhIjv9QwKVpXbDbe_C08zHdi=w408-h306-k-no", "lat": 33.434728, "lng": -5.2318879, "name": "El Amraou", "phone": "", "region": "Afrique et Moyen-Orient"}], "regions": [{"coords": {"lat": 2.9660291, "lng": 1.3271339}, "id": "africa-middle-east", "name": "Afrique et Moyen-Orient", "zoom": 3.0}, {"coords": {"lat": 0.0524811, "lng": 127.6560787}, "id": "asia-pacific", "name": "Asie-Pacifique", "zoom": 3.0}, {"coords": {"lat": 46.1352815, "lng": 7.4033438}, "id": "europe", "name": "Europe", "zoom": 4.0}, {"coords": {"lat": -17.5554497, "lng": -99.2316195}, "id": "latin-america", "name": "Am\u00e9rique latine", "zoom": 3.0}, {"coords": {"lat": 45.7128252, "lng": -97.1547448}, "id": "north-america", "name": "Am\u00e9rique du Nord", "zoom": 4.0}]}
