{"offices": [{"address": "Aabogade\u00a015\n8200\u00a0Aarh us\nDanemark", "id": "aarhus", "image": "https://lh3.googleusercontent.com/tpBMFN5os8K-qXIHiAX5SZEmN5fCzIGrj9FdJtbZPUkC91ookSoY520NYn7fK5yqmh1L1m3F2SJA58v6Qps3JusdrxoFSwk6Ajv2K88", "lat": 33.434728, "lng": -5.2318879, "name": "Aarhus", "phone": "", "region": "europe"},], "regions": [{"coords": {"lat": 2.9660291, "lng": 1.3271339}, "id": "africa-middle-east", "name": "Afrique et Moyen-Orient", "zoom": 3.0}, {"coords": {"lat": 0.0524811, "lng": 127.6560787}, "id": "asia-pacific", "name": "Asie-Pacifique", "zoom": 3.0}, {"coords": {"lat": 46.1352815, "lng": 7.4033438}, "id": "europe", "name": "Europe", "zoom": 4.0}, {"coords": {"lat": -17.5554497, "lng": -99.2316195}, "id": "latin-america", "name": "Am\u00e9rique latine", "zoom": 3.0}, {"coords": {"lat": 45.7128252, "lng": -97.1547448}, "id": "north-america", "name": "Am\u00e9rique du Nord", "zoom": 4.0}]}
